City_ID,City,Country,Date,Lat,Lng,Max Temp,Humidity,Cloudiness,Wind Speed,Current Description
0,Cape Town,ZA,2022-01-04 03:22:34,-33.9258,18.4232,62.28,82,0,3.0,clear sky
1,Sao Filipe,CV,2022-01-04 03:23:39,14.8961,-24.4956,73.04,63,51,7.14,broken clouds
2,Santa Fe,AR,2022-01-04 03:23:39,-31.6333,-60.7,82.02,64,7,1.99,light rain
3,Port Elizabeth,ZA,2022-01-04 03:23:39,-33.918,25.5701,69.1,94,40,10.36,mist
4,Rikitea,PF,2022-01-04 03:23:40,-23.1203,-134.9692,78.08,67,100,4.38,overcast clouds
5,Puerto Ayora,EC,2022-01-04 03:23:40,-0.7393,-90.3518,71.24,88,93,5.75,overcast clouds
6,Laguna,US,2022-01-04 03:23:40,38.421,-121.4238,55.6,74,90,3.0,overcast clouds
7,Ilulissat,GL,2022-01-04 03:23:40,69.2167,-51.1,30.22,47,100,13.8,overcast clouds
8,Amberley,US,2022-01-04 03:23:41,39.2048,-84.428,26.4,82,1,1.01,clear sky
9,Koulikoro,ML,2022-01-04 03:23:41,14.0,-7.75,62.65,26,14,8.61,few clouds
10,Ushuaia,AR,2022-01-04 03:23:41,-54.8,-68.3,40.66,70,75,26.46,broken clouds
11,Tasiilaq,GL,2022-01-04 03:23:42,65.6145,-37.6368,23.16,81,100,13.18,overcast clouds
12,Nha Trang,VN,2022-01-04 03:21:03,12.25,109.1833,80.6,73,100,6.53,overcast clouds
13,Ancud,CL,2022-01-04 03:23:42,-41.8697,-73.8203,54.43,82,100,9.04,light rain
14,Mayumba,GA,2022-01-04 03:23:42,-3.432,10.6554,75.4,92,100,2.57,light rain
15,El Vigia,VE,2022-01-04 03:23:43,8.6219,-71.6506,74.53,84,99,3.33,overcast clouds
16,Busselton,AU,2022-01-04 03:23:43,-33.65,115.3333,81.21,36,7,7.18,clear sky
17,Gioia Tauro,IT,2022-01-04 03:23:43,38.424,15.899,56.82,84,27,1.19,scattered clouds
18,New Norfolk,AU,2022-01-04 03:23:43,-42.7826,147.0587,70.66,51,100,1.99,overcast clouds
19,Hilo,US,2022-01-04 03:23:44,19.7297,-155.09,73.8,87,90,9.22,moderate rain
20,Hithadhoo,MV,2022-01-04 03:23:44,-0.6,73.0833,82.51,69,100,5.28,overcast clouds
21,Bredasdorp,ZA,2022-01-04 03:23:44,-34.5322,20.0403,54.28,87,1,0.0,clear sky
22,Mar Del Plata,AR,2022-01-04 03:19:11,-38.0023,-57.5575,72.88,85,0,11.99,clear sky
23,Jamestown,US,2022-01-04 03:23:45,42.097,-79.2353,19.71,83,90,4.0,light snow
24,Hermanus,ZA,2022-01-04 03:23:45,-34.4187,19.2345,54.81,86,6,7.16,clear sky
25,Saint-Philippe,RE,2022-01-04 03:23:45,-21.3585,55.7679,78.39,77,12,8.57,few clouds
26,Luderitz,NA,2022-01-04 03:23:46,-26.6481,15.1594,59.13,79,0,14.16,clear sky
27,Victoria,HK,2022-01-04 03:23:46,22.2855,114.1577,71.65,64,47,1.01,scattered clouds
28,Constitucion,CL,2022-01-04 03:23:46,-35.3333,-72.4167,58.66,93,9,6.13,clear sky
29,Albany,US,2022-01-04 03:23:47,42.6001,-73.9662,16.65,79,23,6.78,few clouds
30,Faanui,PF,2022-01-04 03:23:47,-16.4833,-151.75,79.54,78,100,7.7,light rain
31,Smithers,CA,2022-01-04 03:23:47,54.7804,-127.1743,-1.88,60,90,16.11,overcast clouds
32,Thompson,CA,2022-01-04 03:23:47,55.7435,-97.8558,-25.44,75,1,3.44,clear sky
33,Kapaa,US,2022-01-04 03:23:48,22.0752,-159.319,76.98,81,40,1.01,scattered clouds
34,Saskylakh,RU,2022-01-04 03:23:48,71.9167,114.0833,-48.48,98,63,5.21,broken clouds
35,Sisophon,KH,2022-01-04 03:23:48,13.5859,102.9737,81.32,54,95,6.22,overcast clouds
36,Carnarvon,AU,2022-01-04 03:23:48,-24.8667,113.6333,82.47,69,0,17.27,clear sky
37,Ghiror,IN,2022-01-04 03:23:49,27.1833,78.8,56.91,43,7,2.15,clear sky
38,Xining,CN,2022-01-04 03:23:49,36.6167,101.7667,24.91,33,3,1.61,clear sky
39,Ixtapa,MX,2022-01-04 03:23:49,20.7,-105.2,76.23,83,75,2.3,broken clouds
40,Bjelovar,HR,2022-01-04 03:23:50,45.8986,16.8489,46.4,89,100,7.85,overcast clouds
41,Pahrump,US,2022-01-04 03:23:50,36.2083,-115.9839,41.11,42,100,3.47,overcast clouds
42,Suba,PH,2022-01-04 03:23:50,10.8438,121.0102,79.14,78,81,22.93,broken clouds
43,Fort Nelson,CA,2022-01-04 03:21:15,58.8053,-122.7002,-24.21,62,90,6.91,light snow
44,Aquiraz,BR,2022-01-04 03:23:51,-3.9014,-38.3911,78.89,88,97,8.41,overcast clouds
45,Tuktoyaktuk,CA,2022-01-04 03:23:51,69.4541,-133.0374,-16.6,76,75,11.5,broken clouds
46,Amsterdam,NL,2022-01-04 03:24:51,52.374,4.8897,48.09,92,40,5.99,scattered clouds
47,Santo Angelo,BR,2022-01-04 03:20:52,-28.2992,-54.2631,73.72,83,0,4.61,light rain
48,Karratha,AU,2022-01-04 03:24:51,-20.7377,116.8463,98.67,26,100,10.96,overcast clouds
49,Vaini,TO,2022-01-04 03:24:52,-21.2,-175.2,80.76,94,75,21.85,light rain
50,Datong,CN,2022-01-04 03:24:52,40.0936,113.2914,24.26,35,0,0.34,clear sky
51,Isangel,VU,2022-01-04 03:24:52,-19.55,169.2667,78.91,94,90,4.61,moderate rain
52,Oranjestad,AW,2022-01-04 03:24:53,12.524,-70.027,78.91,72,20,3.0,few clouds
53,Mataura,NZ,2022-01-04 03:24:53,-46.1927,168.8643,70.47,62,100,2.42,light rain
54,Paamiut,GL,2022-01-04 03:24:53,61.994,-49.6678,30.92,88,100,16.22,light snow
55,Port Alfred,ZA,2022-01-04 03:24:54,-33.5906,26.891,69.89,94,100,9.35,light rain
56,Leshukonskoye,RU,2022-01-04 03:24:54,64.8989,45.7622,-4.4,97,98,6.58,overcast clouds
57,Cankuzo,BI,2022-01-04 03:24:54,-3.1333,30.5833,57.25,93,88,1.36,overcast clouds
58,Drayton Valley,CA,2022-01-04 03:24:54,53.2168,-114.9854,-13.32,98,100,9.15,light snow
59,Vestmannaeyjar,IS,2022-01-04 03:24:55,63.4427,-20.2734,29.26,65,0,20.02,clear sky
60,Nikolskoye,RU,2022-01-04 03:24:55,59.7035,30.7861,21.4,95,100,7.09,light snow
61,Nanortalik,GL,2022-01-04 03:24:55,60.1432,-45.2371,37.71,69,100,47.62,light rain
62,Chuguyevka,RU,2022-01-04 03:24:56,44.1653,133.8633,-1.05,80,100,10.63,overcast clouds
63,Punta Arenas,CL,2022-01-04 03:24:19,-53.15,-70.9167,41.11,56,40,11.5,scattered clouds
64,Bluff,NZ,2022-01-04 03:24:56,-46.6,168.3333,60.6,88,100,7.14,overcast clouds
65,Cherskiy,RU,2022-01-04 03:24:56,68.75,161.3,-0.54,97,100,6.44,light snow
66,Cayenne,GF,2022-01-04 03:23:26,4.9333,-52.3333,79.09,81,20,1.99,few clouds
67,Umm Lajj,SA,2022-01-04 03:24:57,25.0213,37.2685,66.2,58,0,10.31,clear sky
68,Paraiso,CR,2022-01-04 03:24:57,9.8383,-83.8656,67.06,97,71,4.81,broken clouds
69,Arraial Do Cabo,BR,2022-01-04 03:24:57,-22.9661,-42.0278,75.24,86,100,26.62,heavy intensity rain
70,Araouane,ML,2022-01-04 03:24:58,18.9048,-3.5265,59.4,24,0,8.41,clear sky
71,Atuona,PF,2022-01-04 03:24:58,-9.8,-139.0333,78.98,75,43,17.85,scattered clouds
72,Pindi Bhattian,PK,2022-01-04 03:24:58,31.8978,73.273,57.61,60,100,2.1,moderate rain
73,Umba,RU,2022-01-04 03:24:59,66.6871,34.3429,-0.63,98,93,5.41,overcast clouds
74,Olafsvik,IS,2022-01-04 03:24:59,64.8945,-23.7142,28.83,70,57,8.63,broken clouds
75,Wainwright,CA,2022-01-04 03:24:59,52.839,-110.8572,-11.29,98,100,11.7,snow
76,Linhares,BR,2022-01-04 03:24:59,-19.3911,-40.0722,71.29,97,96,1.66,overcast clouds
77,Naze,JP,2022-01-04 03:25:00,28.3667,129.4833,61.72,57,0,10.4,clear sky
78,Quatre Cocos,MU,2022-01-04 03:25:00,-20.2078,57.7625,81.09,81,88,9.91,light rain
79,San Patricio,US,2022-01-04 03:25:00,28.017,-97.5169,51.84,40,7,5.95,clear sky
80,East London,ZA,2022-01-04 03:25:01,-33.0153,27.9116,68.94,94,40,8.05,mist
81,Broome,US,2022-01-04 03:25:01,42.2506,-75.833,17.62,84,90,1.01,overcast clouds
82,Shingu,JP,2022-01-04 03:25:01,33.7333,135.9833,50.99,46,6,13.89,clear sky
83,Russell,US,2022-01-04 03:21:16,32.3502,-85.1999,35.2,91,1,3.44,clear sky
84,Hobart,AU,2022-01-04 03:21:58,-42.8794,147.3294,71.02,64,75,10.36,broken clouds
85,Xiuyan,CN,2022-01-04 03:25:01,40.2928,123.2744,23.4,27,0,8.23,clear sky
86,Bathsheba,BB,2022-01-04 03:25:02,13.2167,-59.5167,77.61,69,20,14.97,few clouds
87,Clarence Town,AU,2022-01-04 03:26:02,-32.5833,151.7833,83.14,74,63,10.42,broken clouds
88,Haapiti,PF,2022-01-04 03:26:02,-17.5667,-149.8667,82.13,74,98,13.33,overcast clouds
89,Tallahassee,US,2022-01-04 03:26:03,30.4383,-84.2807,42.62,90,1,4.61,clear sky
90,Cascais,PT,2022-01-04 03:26:03,38.6979,-9.4215,61.5,84,50,3.0,scattered clouds
91,Kodiak,US,2022-01-04 03:26:03,57.79,-152.4072,19.51,71,94,14.7,overcast clouds
92,Itoigawa,JP,2022-01-04 03:26:03,37.0333,137.85,38.61,94,100,16.06,light rain
93,Esso,RU,2022-01-04 03:26:04,55.9333,158.7,17.98,85,100,1.57,overcast clouds
94,Vao,NC,2022-01-04 03:26:04,-22.6667,167.4833,78.89,79,79,19.64,broken clouds
95,Goderich,CA,2022-01-04 03:26:04,43.7501,-81.7165,30.9,74,100,18.41,overcast clouds
96,Pavilosta,LV,2022-01-04 03:26:05,56.8879,21.1859,40.95,95,100,19.17,overcast clouds
97,Haines Junction,CA,2022-01-04 03:26:05,60.7522,-137.5108,-18.45,57,100,9.22,overcast clouds
98,Leningradskiy,RU,2022-01-04 03:26:05,69.3833,178.4167,28.81,77,100,6.46,overcast clouds
99,Alice Springs,AU,2022-01-04 03:26:06,-23.7,133.8833,99.95,15,5,13.8,clear sky
100,Lompoc,US,2022-01-04 03:21:50,34.6391,-120.4579,54.41,86,1,4.61,clear sky
101,Nome,US,2022-01-04 03:26:06,64.5011,-165.4064,-5.84,64,1,4.61,clear sky
102,Bethel,US,2022-01-04 03:26:06,41.3712,-73.414,23.58,67,1,1.01,clear sky
103,Adelaide,AU,2022-01-04 03:22:01,-34.9333,138.6,81.05,40,20,5.99,few clouds
104,Chuy,UY,2022-01-04 03:26:07,-33.6971,-53.4616,71.49,95,72,4.94,light rain
105,Kaitangata,NZ,2022-01-04 03:26:07,-46.2817,169.8464,67.93,73,100,2.95,overcast clouds
106,Nikki,BJ,2022-01-04 03:26:07,9.9401,3.2108,70.0,25,98,4.03,overcast clouds
107,Bulgan,MN,2022-01-04 03:26:08,48.8125,103.5347,6.48,74,1,2.95,clear sky
108,Puerto Cabezas,NI,2022-01-04 03:26:08,14.0351,-83.3888,75.4,88,10,9.66,clear sky
109,Guerrero Negro,MX,2022-01-04 03:26:08,27.9769,-114.0611,59.02,53,97,9.98,overcast clouds
110,San Quintin,MX,2022-01-04 03:26:08,30.4833,-115.95,56.19,72,99,12.03,overcast clouds
111,Aklavik,CA,2022-01-04 03:26:09,68.2191,-135.0107,-26.57,100,100,1.68,overcast clouds
112,Ola,RU,2022-01-04 03:26:09,59.5833,151.2833,8.15,88,43,5.19,scattered clouds
113,Guymon,US,2022-01-04 03:26:09,36.6828,-101.4816,34.48,55,1,9.22,clear sky
114,Beatrice,US,2022-01-04 03:26:10,40.2681,-96.747,35.98,64,1,13.8,clear sky
115,Saint-Pierre,RE,2022-01-04 03:26:10,-21.3393,55.4781,78.48,67,0,6.91,clear sky
116,Turan,VN,2022-01-04 03:26:10,16.0678,108.2208,78.78,69,40,3.44,scattered clouds
117,Roald,NO,2022-01-04 03:26:10,62.5833,6.1333,39.34,60,75,17.27,light rain
118,Butaritari,KI,2022-01-04 03:26:11,3.0707,172.7902,81.41,66,98,15.59,overcast clouds
119,Pangkalanbuun,ID,2022-01-04 03:26:11,-2.6833,111.6167,89.11,58,100,2.15,overcast clouds
120,Fairbanks,US,2022-01-04 03:23:02,64.8378,-147.7164,-22.0,72,1,8.05,clear sky
121,Mangrol,IN,2022-01-04 03:26:11,21.1167,70.1167,71.28,64,18,7.52,few clouds
122,Sann,PK,2022-01-04 03:26:12,26.0418,68.1378,58.91,27,64,8.7,broken clouds
123,Jinchang,CN,2022-01-04 03:26:12,38.4953,102.1739,30.58,22,0,2.95,clear sky
124,Kichera,RU,2022-01-04 03:26:12,55.9375,110.0997,9.37,93,100,0.58,overcast clouds
125,Sioux Lookout,CA,2022-01-04 03:26:13,50.1001,-91.917,-7.53,77,90,2.3,light snow
126,Kugulta,RU,2022-01-04 03:26:13,45.3636,42.3889,43.38,70,100,20.58,light rain
127,Acapulco,MX,2022-01-04 03:25:43,16.8634,-99.8901,78.62,83,1,2.3,clear sky
128,Tromso,NO,2022-01-04 03:27:13,69.6496,18.957,23.02,63,0,11.5,clear sky
129,Kadoma,JP,2022-01-04 03:27:14,34.7333,135.5833,50.05,44,75,9.22,broken clouds
130,Beloha,MG,2022-01-04 03:27:14,-25.1667,45.05,72.84,75,3,11.48,clear sky
131,Dingle,PH,2022-01-04 03:27:14,10.9995,122.6711,79.36,79,100,15.39,overcast clouds
132,La Ceiba,HN,2022-01-04 03:27:14,15.7597,-86.7822,76.82,83,20,3.44,few clouds
133,Saint Anthony,US,2022-01-04 03:27:15,45.0205,-93.218,20.35,78,1,1.01,clear sky
134,Naron,ES,2022-01-04 03:27:15,43.5167,-8.1528,57.56,96,100,10.94,moderate rain
135,Iquique,CL,2022-01-04 03:27:15,-20.2208,-70.1431,68.04,78,43,1.16,scattered clouds
136,Cabo San Lucas,MX,2022-01-04 03:27:16,22.8909,-109.9124,71.15,78,1,4.61,clear sky
137,Yar-Sale,RU,2022-01-04 03:27:16,66.8333,70.8333,0.48,97,100,15.26,light snow
138,Alofi,NU,2022-01-04 03:27:16,-19.0595,-169.9187,82.29,83,100,10.36,light rain
139,Carutapera,BR,2022-01-04 03:27:17,-1.195,-46.02,73.94,96,100,2.62,light rain
140,Ponta Delgada,PT,2022-01-04 03:27:17,37.7333,-25.6667,53.51,66,20,6.91,few clouds
141,Esik,KZ,2022-01-04 03:27:17,43.3552,77.4525,40.42,65,100,5.41,overcast clouds
142,Kavieng,PG,2022-01-04 03:27:17,-2.5744,150.7967,81.07,78,100,8.75,moderate rain
143,Yellowknife,CA,2022-01-04 03:27:18,62.456,-114.3525,-34.08,67,20,11.5,few clouds
144,Mirnyy,RU,2022-01-04 03:27:18,62.5353,113.9611,-46.77,64,59,1.99,broken clouds
145,Guangyuan,CN,2022-01-04 03:27:18,32.442,105.823,46.62,75,100,3.24,overcast clouds
146,Pevek,RU,2022-01-04 03:27:19,69.7008,170.3133,28.36,82,96,25.32,overcast clouds
147,Cidreira,BR,2022-01-04 03:27:19,-30.1811,-50.2056,74.88,93,100,13.87,overcast clouds
148,Doha,QA,2022-01-04 03:24:35,25.2867,51.5333,60.78,59,0,6.91,clear sky
149,Poya,NC,2022-01-04 03:27:19,-21.35,165.15,83.21,76,58,4.7,broken clouds
150,Airai,TL,2022-01-04 03:27:19,-8.9266,125.4092,72.3,71,100,3.31,overcast clouds
151,Qaanaaq,GL,2022-01-04 03:27:20,77.484,-69.3632,-2.25,56,11,7.52,few clouds
152,Acarau,BR,2022-01-04 03:27:20,-2.8856,-40.12,77.76,86,23,10.16,few clouds
153,Hami,CN,2022-01-04 03:27:20,42.8,93.45,23.92,44,87,5.08,overcast clouds
154,Bandarbeyla,SO,2022-01-04 03:27:21,9.4942,50.8122,76.39,86,80,5.97,broken clouds
155,Nalut,LY,2022-01-04 03:27:21,30.3333,10.85,49.21,57,0,5.06,clear sky
156,Bambanglipuro,ID,2022-01-04 03:27:21,-7.95,110.2833,82.83,70,100,4.14,overcast clouds
157,Acari,PE,2022-01-04 03:23:12,-15.4311,-74.6158,73.11,80,44,4.54,scattered clouds
158,Groningen,NL,2022-01-04 03:27:21,53.25,6.75,47.16,93,75,5.01,broken clouds
159,Dikson,RU,2022-01-04 03:27:22,73.5069,80.5464,-35.57,92,82,7.83,broken clouds
160,Impfondo,CG,2022-01-04 03:27:22,1.6381,18.0667,68.79,51,100,1.16,overcast clouds
161,Avarua,CK,2022-01-04 03:26:03,-21.2078,-159.775,82.45,74,90,16.11,overcast clouds
162,Miandrivazo,MG,2022-01-04 03:27:23,-19.5167,45.4667,80.17,75,20,0.38,few clouds
163,Nebolchi,RU,2022-01-04 03:27:23,59.1239,33.3454,12.45,93,94,7.72,overcast clouds
164,Larkana,PK,2022-01-04 03:27:23,27.5551,68.2141,55.47,51,43,7.34,scattered clouds
165,Arman,RU,2022-01-04 03:27:23,59.7,150.1667,8.02,84,93,7.05,overcast clouds
166,High Level,CA,2022-01-04 03:27:24,58.5169,-117.136,-25.49,68,90,13.8,light snow
167,Georgetown,MY,2022-01-04 03:26:36,5.4112,100.3354,85.93,72,20,3.44,few clouds
168,Nemuro,JP,2022-01-04 03:27:24,43.3236,145.575,21.63,63,67,30.29,broken clouds
169,Bambous Virieux,MU,2022-01-04 03:27:24,-20.3428,57.7575,81.21,83,40,6.91,light rain
170,Khatanga,RU,2022-01-04 03:28:25,71.9667,102.5,-55.66,99,46,4.65,scattered clouds
171,Port Lincoln,AU,2022-01-04 03:25:01,-34.7333,135.8667,66.52,56,71,16.17,broken clouds
172,Norman Wells,CA,2022-01-04 03:28:25,65.282,-126.8329,-32.76,68,75,5.75,light snow
173,Iquitos,PE,2022-01-04 03:24:57,-3.7481,-73.2472,77.04,94,0,0.0,clear sky
174,Petropavlovsk-Kamchatskiy,RU,2022-01-04 03:28:25,53.0452,158.6483,12.79,67,0,2.24,clear sky
175,Tahta,EG,2022-01-04 03:28:26,26.7693,31.5021,53.01,76,0,5.61,clear sky
176,Coahuayana,MX,2022-01-04 03:28:26,18.7333,-103.6833,80.08,89,0,2.98,clear sky
177,Lusambo,CD,2022-01-04 03:28:26,-4.9667,23.45,69.04,99,100,1.01,overcast clouds
178,Chicama,PE,2022-01-04 03:28:26,-7.8447,-79.1469,64.94,79,63,6.55,broken clouds
179,Castelldefels,ES,2022-01-04 03:28:27,41.2779,1.9703,60.21,74,75,1.01,broken clouds
180,Oyama,JP,2022-01-04 03:28:27,36.3,139.8,54.9,33,13,11.45,few clouds
181,Sitka,US,2022-01-04 03:28:27,57.0531,-135.33,21.09,45,90,13.8,overcast clouds
182,Denpasar,ID,2022-01-04 03:24:45,-8.65,115.2167,82.06,78,40,5.75,moderate rain
183,Tooele,US,2022-01-04 03:28:28,40.5308,-112.2983,34.83,93,1,0.0,clear sky
184,Honiara,SB,2022-01-04 03:26:13,-9.4333,159.95,89.91,53,64,9.44,broken clouds
185,Santo Antonio Da Platina,BR,2022-01-04 03:28:28,-23.295,-50.0772,72.66,86,83,5.57,broken clouds
186,Cangas,ES,2022-01-04 03:28:28,42.2641,-8.7846,60.4,80,75,7.0,broken clouds
187,Sohag,EG,2022-01-04 03:28:29,26.557,31.6948,52.3,79,0,6.02,clear sky
188,Guarapari,BR,2022-01-04 03:28:29,-20.6667,-40.4975,76.89,93,100,9.78,overcast clouds
189,Vila Franca Do Campo,PT,2022-01-04 03:28:29,37.7167,-25.4333,53.2,71,77,5.39,broken clouds
190,Ponta Do Sol,PT,2022-01-04 03:28:30,32.6667,-17.1,66.13,18,100,4.36,overcast clouds
191,Klaksvik,FO,2022-01-04 03:28:30,62.2266,-6.589,34.72,85,99,54.29,light rain
192,Askino,RU,2022-01-04 03:28:30,56.0901,56.5783,-2.06,97,100,10.27,overcast clouds
193,Korla,CN,2022-01-04 03:28:30,41.7597,86.1469,20.37,67,31,1.07,scattered clouds
194,Grand-Santi,GF,2022-01-04 03:28:31,4.25,-54.3833,69.04,98,59,2.44,broken clouds
195,Barrow,US,2022-01-04 03:28:31,71.2906,-156.7887,-27.38,68,1,12.66,clear sky
196,San Cristobal,VE,2022-01-04 03:28:31,7.7669,-72.225,71.78,79,100,1.07,overcast clouds
197,Xinan,CN,2022-01-04 03:28:32,26.72,119.8556,57.54,69,38,1.07,scattered clouds
198,Saldanha,ZA,2022-01-04 03:28:32,-33.0117,17.9442,59.05,87,35,13.44,scattered clouds
199,Dvinskoy,RU,2022-01-04 03:28:32,62.1535,45.1175,-7.29,99,89,4.63,overcast clouds
200,Kampot,KH,2022-01-04 03:28:32,10.6167,104.1833,84.25,59,7,10.36,clear sky
201,Tura,IN,2022-01-04 03:28:33,25.5198,90.2201,65.95,50,0,1.86,clear sky
202,Xique-Xique,BR,2022-01-04 03:28:33,-10.8218,-42.7263,73.29,86,100,5.84,moderate rain
203,Maceio,BR,2022-01-04 03:28:33,-9.6658,-35.7353,76.44,88,40,2.3,scattered clouds
204,Panalingaan,PH,2022-01-04 03:28:33,8.7842,117.4231,83.37,69,92,2.75,moderate rain
205,Tilichiki,RU,2022-01-04 03:28:34,60.4667,166.1,31.14,90,100,31.9,snow
206,Zacualpan,MX,2022-01-04 03:28:34,21.25,-105.1667,76.71,87,8,4.36,clear sky
207,Buraydah,SA,2022-01-04 03:28:34,26.326,43.975,45.05,64,2,8.39,clear sky
208,Sena Madureira,BR,2022-01-04 03:28:35,-9.0656,-68.6569,75.11,95,99,3.4,overcast clouds
209,Abu Samrah,SY,2022-01-04 03:28:35,35.3029,37.1841,45.34,83,66,8.61,broken clouds
210,Matamoros,MX,2022-01-04 03:28:35,25.5333,-103.25,57.31,33,1,0.0,clear sky
211,Aripuana,BR,2022-01-04 03:28:35,-9.1667,-60.6333,72.75,99,100,3.15,overcast clouds
212,Mincivan,AZ,2022-01-04 03:28:36,39.0294,46.7185,35.2,53,31,7.87,scattered clouds
213,Corner Brook,CA,2022-01-04 03:26:56,48.9667,-57.9484,19.53,83,96,8.66,overcast clouds
214,Nola,IT,2022-01-04 03:28:36,40.922,14.5329,56.55,85,92,1.99,overcast clouds
215,Bonavista,CA,2022-01-04 03:28:36,48.6499,-53.1147,21.11,68,89,17.18,overcast clouds
216,Buala,SB,2022-01-04 03:29:37,-8.145,159.5921,84.52,72,94,8.7,light rain
217,Katsuura,JP,2022-01-04 03:29:37,35.1333,140.3,51.84,40,1,12.17,clear sky
218,Vestmanna,FO,2022-01-04 03:29:37,62.1564,-7.1664,32.92,80,75,48.34,light snow
219,Kahului,US,2022-01-04 03:29:38,20.8947,-156.47,78.82,80,40,10.36,light rain
220,Kizlyar,RU,2022-01-04 03:29:38,43.8469,46.715,35.22,79,100,9.37,light rain
221,Longyearbyen,SJ,2022-01-04 03:29:38,78.2186,15.6401,-0.56,71,0,17.27,clear sky
222,Hunterville,NZ,2022-01-04 03:29:38,-39.9333,175.5667,84.7,27,0,7.11,clear sky
223,Bethanien,NA,2022-01-04 03:29:39,-26.502,17.1583,61.97,37,0,4.45,clear sky
224,Durres,AL,2022-01-04 03:29:39,41.3231,19.4414,50.18,85,73,6.31,broken clouds
225,Talnakh,RU,2022-01-04 03:29:39,69.4865,88.3972,-21.77,87,98,8.32,overcast clouds
226,Manggar,ID,2022-01-04 03:29:40,-2.8833,108.2667,84.65,67,97,5.57,overcast clouds
227,Pangnirtung,CA,2022-01-04 03:29:40,66.1451,-65.7125,3.94,78,99,8.3,overcast clouds
228,Pasighat,IN,2022-01-04 03:29:40,28.0667,95.3333,67.23,41,5,0.36,clear sky
229,Stranda,NO,2022-01-04 03:29:40,62.3096,6.9358,38.79,79,46,9.06,scattered clouds
230,Abalak,RU,2022-01-04 03:29:41,58.1286,68.5944,14.61,92,100,12.82,overcast clouds
231,Mahebourg,MU,2022-01-04 03:29:41,-20.4081,57.7,82.26,83,40,6.91,light rain
232,Morgan City,US,2022-01-04 03:29:41,29.6994,-91.2068,41.0,69,0,4.72,clear sky
233,Palmer,US,2022-01-04 03:29:41,42.1584,-72.3287,22.64,53,40,3.0,scattered clouds
234,Morant Bay,JM,2022-01-04 03:29:42,17.8815,-76.4093,76.62,73,38,6.02,scattered clouds
235,Husavik,IS,2022-01-04 03:29:42,66.0449,-17.3389,15.71,78,100,8.16,overcast clouds
236,Severo-Kurilsk,RU,2022-01-04 03:29:42,50.6789,156.125,30.2,93,100,18.7,snow
237,Yulara,AU,2022-01-04 03:29:43,-25.2406,130.9889,102.04,15,70,14.97,broken clouds
238,Mildura,AU,2022-01-04 03:27:41,-34.2,142.15,81.07,19,0,10.36,clear sky
239,Huarmey,PE,2022-01-04 03:29:43,-10.0681,-78.1522,69.21,88,70,5.48,broken clouds
240,Hatillo,PR,2022-01-04 03:29:43,18.4863,-66.8254,75.78,87,7,1.99,clear sky
241,Avera,US,2022-01-04 03:29:43,33.194,-82.5271,42.71,64,3,5.17,clear sky
242,Chokurdakh,RU,2022-01-04 03:29:44,70.6333,147.9167,-31.36,97,18,8.95,few clouds
243,Serro,BR,2022-01-04 03:29:44,-18.6047,-43.3794,66.88,98,100,2.3,overcast clouds
244,Lebu,CL,2022-01-04 03:29:44,-37.6167,-73.65,60.19,97,100,4.34,overcast clouds
245,Mount Isa,AU,2022-01-04 03:29:45,-20.7333,139.5,103.77,18,51,8.05,broken clouds
246,Vardo,NO,2022-01-04 03:29:45,70.3705,31.1107,22.93,58,100,14.76,overcast clouds
247,Vila Velha,BR,2022-01-04 03:29:45,-20.3297,-40.2925,76.95,90,75,8.99,broken clouds
248,Severo-Yeniseyskiy,RU,2022-01-04 03:29:45,60.3725,93.0408,2.59,96,100,4.29,overcast clouds
249,Samarai,PG,2022-01-04 03:29:46,-10.6167,150.6667,86.4,67,98,8.81,overcast clouds
250,Hofn,IS,2022-01-04 03:29:46,64.2539,-15.2082,27.59,61,6,21.16,clear sky
251,Castro,BR,2022-01-04 03:29:46,-24.7911,-50.0119,64.47,96,79,7.23,broken clouds
252,Det Udom,TH,2022-01-04 03:29:46,14.906,105.0784,80.91,59,51,1.5,broken clouds
253,Unity,CA,2022-01-04 03:29:47,52.4501,-109.1682,-6.75,98,100,15.73,snow
254,Upernavik,GL,2022-01-04 03:29:47,72.7868,-56.1549,-7.91,84,14,7.27,few clouds
255,Jaciara,BR,2022-01-04 03:27:50,-15.9653,-54.9683,71.69,93,57,2.93,broken clouds
256,Lyuban,BY,2022-01-04 03:29:47,52.7985,28.0048,36.1,96,99,9.75,overcast clouds
257,Pacific Grove,US,2022-01-04 03:29:48,36.6177,-121.9166,54.09,82,90,11.01,overcast clouds
258,Kavaratti,IN,2022-01-04 03:29:48,10.5669,72.642,81.93,69,12,8.57,few clouds
259,Mana,GF,2022-01-04 03:29:48,5.6592,-53.7767,75.94,84,11,8.93,few clouds
260,Kiunga,PG,2022-01-04 03:29:48,-6.1219,141.2906,87.98,66,51,5.73,broken clouds
261,Barcelos,PT,2022-01-04 03:29:49,41.5388,-8.6151,58.84,75,34,14.85,scattered clouds
262,Wanaka,NZ,2022-01-04 03:29:49,-44.7,169.15,71.42,55,100,5.79,overcast clouds
263,Auki,SB,2022-01-04 03:29:49,-8.7676,160.7034,85.14,68,95,11.81,overcast clouds
264,West Odessa,US,2022-01-04 03:29:50,31.8424,-102.4988,46.42,26,1,11.5,clear sky
265,Calamar,CO,2022-01-04 03:30:50,10.2511,-74.9146,78.75,79,89,4.36,overcast clouds
266,Narsipatnam,IN,2022-01-04 03:30:50,17.6667,82.6167,71.01,53,0,2.75,clear sky
267,Coihaique,CL,2022-01-04 03:28:02,-45.5752,-72.0662,47.01,95,69,11.03,broken clouds
268,Kruisfontein,ZA,2022-01-04 03:30:51,-34.0033,24.7314,66.88,94,100,5.93,overcast clouds
269,Harper,LR,2022-01-04 03:30:51,4.375,-7.7169,77.7,84,71,7.4,moderate rain
270,Torbay,CA,2022-01-04 03:30:51,47.6666,-52.7314,23.58,77,90,12.66,overcast clouds
271,Linxia,CN,2022-01-04 03:30:52,35.6003,103.2064,30.61,45,78,1.63,broken clouds
272,Caceres,ES,2022-01-04 03:30:52,39.522,-6.3748,41.81,96,61,5.53,broken clouds
273,Hamilton,US,2022-01-04 03:26:10,39.1834,-84.5333,27.09,82,1,0.0,clear sky
274,Litovko,RU,2022-01-04 03:30:52,49.2361,135.1742,-7.06,88,30,1.59,scattered clouds
275,Santa Vitoria Do Palmar,BR,2022-01-04 03:30:53,-33.5189,-53.3681,71.92,96,81,5.14,broken clouds
276,Qaqortoq,GL,2022-01-04 03:30:53,60.7167,-46.0333,36.1,47,100,34.85,overcast clouds
277,Salalah,OM,2022-01-04 03:30:53,17.0151,54.0924,73.49,73,75,3.44,broken clouds
278,Nelson Bay,AU,2022-01-04 03:30:54,-32.7167,152.15,83.28,85,22,1.01,few clouds
279,Prince Rupert,CA,2022-01-04 03:30:54,54.3161,-130.3201,26.29,52,1,8.05,clear sky
280,Port Hardy,CA,2022-01-04 03:30:54,50.6996,-127.4199,39.2,100,20,2.3,few clouds
281,Hualmay,PE,2022-01-04 03:30:54,-11.0964,-77.6139,68.67,90,46,5.48,scattered clouds
282,Cuiluan,CN,2022-01-04 03:30:55,47.72,128.648,0.93,66,17,6.08,few clouds
283,Ratnagiri,IN,2022-01-04 03:30:55,16.9833,73.3,80.78,49,20,6.33,few clouds
284,Jinka,ET,2022-01-04 03:30:55,5.65,36.65,63.66,52,79,2.01,broken clouds
285,Itarema,BR,2022-01-04 03:30:56,-2.9248,-39.9167,77.5,87,29,9.06,scattered clouds
286,Voyvozh,RU,2022-01-04 03:30:56,62.892,54.9635,0.14,98,98,3.49,overcast clouds
287,Zhob,PK,2022-01-04 03:30:56,31.3411,69.4481,46.62,52,86,7.76,overcast clouds
288,Udomlya,RU,2022-01-04 03:30:56,57.8794,34.9925,8.73,95,100,4.88,overcast clouds
289,Tuatapere,NZ,2022-01-04 03:30:57,-46.1333,167.6833,61.47,90,100,0.72,light rain
290,Sangar,RU,2022-01-04 03:30:57,63.9242,127.4739,-36.78,91,100,7.81,overcast clouds
291,Manyoni,TZ,2022-01-04 03:30:57,-5.7467,34.8382,62.33,75,55,3.47,broken clouds
292,Mehamn,NO,2022-01-04 03:30:58,71.0357,27.8492,19.42,73,100,20.78,overcast clouds
293,Wilmington,US,2022-01-04 03:30:58,34.2257,-77.9447,37.9,72,3,9.17,clear sky
294,Rurrenabaque,BO,2022-01-04 03:30:58,-14.4413,-67.5278,77.45,85,100,0.89,overcast clouds
295,Fukue,JP,2022-01-04 03:30:59,32.6881,128.8419,52.16,58,75,9.22,broken clouds
296,Beringovskiy,RU,2022-01-04 03:30:59,63.05,179.3167,20.57,93,100,6.89,overcast clouds
297,Bourail,NC,2022-01-04 03:31:00,-21.5667,165.4833,82.44,75,54,2.68,broken clouds
298,Tigil,RU,2022-01-04 03:31:00,57.8,158.6667,18.25,93,100,0.49,overcast clouds
299,Pilismarot,HU,2022-01-04 03:31:00,47.7846,18.8754,47.89,92,96,5.68,light rain
300,Oranjemund,NA,2022-01-04 03:31:01,-28.55,16.4333,60.49,86,22,10.76,few clouds
301,Poum,NC,2022-01-04 03:31:01,-20.2333,164.0167,81.66,70,21,9.46,few clouds
302,Namibe,AO,2022-01-04 03:31:01,-15.1961,12.1522,66.97,87,84,3.58,broken clouds
303,Houma,US,2022-01-04 03:28:46,29.5958,-90.7195,46.4,81,0,1.99,clear sky
304,Barillas,GT,2022-01-04 03:31:02,15.8036,-91.3158,62.94,99,100,0.67,overcast clouds
305,Mecca,SA,2022-01-04 03:31:02,21.4267,39.8261,62.13,60,47,6.4,scattered clouds
306,San Angelo,US,2022-01-04 03:31:03,31.4638,-100.437,45.64,33,1,1.01,clear sky
307,Alikalia,SL,2022-01-04 03:31:03,9.1667,-11.4,64.8,74,99,1.07,overcast clouds
308,Pisco,PE,2022-01-04 03:31:03,-13.7,-76.2167,71.65,78,0,8.05,clear sky
309,Lorengau,PG,2022-01-04 03:31:03,-2.0226,147.2712,82.76,80,95,14.52,overcast clouds
310,Cestas,FR,2022-01-04 03:31:04,44.7435,-0.6791,60.46,73,0,5.99,clear sky
311,Port Hedland,AU,2022-01-04 03:31:04,-20.3167,118.5667,93.25,62,76,13.8,broken clouds
312,Manono,CD,2022-01-04 03:32:05,-7.3,27.4167,68.02,98,100,2.06,overcast clouds
313,Adre,TD,2022-01-04 03:32:05,13.4667,22.2,54.84,46,3,15.86,clear sky
314,Saint-Augustin,CA,2022-01-04 03:32:05,51.226,-58.6502,-4.88,80,1,11.88,clear sky
315,Goksun,TR,2022-01-04 03:32:06,38.021,36.4973,27.55,74,100,5.82,overcast clouds
316,Jalu,LY,2022-01-04 03:32:06,29.0331,21.5482,54.1,77,0,5.26,clear sky
317,Esperance,AU,2022-01-04 03:32:06,-33.8667,121.9,76.84,57,29,20.24,scattered clouds
318,Cuamba,MZ,2022-01-04 03:32:06,-14.8031,36.5372,69.4,96,100,2.15,overcast clouds
319,Batagay-Alyta,RU,2022-01-04 03:32:07,67.8006,130.4114,-44.48,97,16,2.82,few clouds
320,Lavrentiya,RU,2022-01-04 03:32:07,65.5833,-171.0,0.39,99,83,2.33,broken clouds
321,Pochutla,MX,2022-01-04 03:32:07,15.7432,-96.4661,76.82,69,1,3.02,clear sky
322,Clyde River,CA,2022-01-04 03:32:07,70.4692,-68.5914,1.63,85,98,24.16,mist
323,Beyneu,KZ,2022-01-04 03:32:08,45.3167,55.2,23.47,88,100,8.01,overcast clouds
324,Pundaguitan,PH,2022-01-04 03:32:08,6.3711,126.1689,80.13,77,95,12.1,overcast clouds
325,Bouza,NE,2022-01-04 03:32:08,14.4229,6.0428,60.46,33,84,12.93,broken clouds
326,Khudumelapye,BW,2022-01-04 03:32:09,-23.8833,24.75,71.78,66,18,8.97,few clouds
327,Buchanan,LR,2022-01-04 03:32:09,5.8808,-10.0467,79.41,81,100,6.62,overcast clouds
328,Anadyr,RU,2022-01-04 03:32:09,64.75,177.4833,27.1,86,100,24.0,overcast clouds
329,Conceicao Do Mato Dentro,BR,2022-01-04 03:32:10,-19.0372,-43.425,66.99,97,100,2.48,overcast clouds
330,Praia Da Vitoria,PT,2022-01-04 03:32:10,38.7333,-27.0667,50.76,81,40,5.17,scattered clouds
331,Ishigaki,JP,2022-01-04 03:32:10,24.3448,124.1572,71.73,73,75,16.11,broken clouds
332,Bud,US,2022-01-04 03:32:11,39.447,-86.1758,26.55,85,1,5.19,clear sky
333,Kodinsk,RU,2022-01-04 03:32:11,58.6881,99.1844,7.29,95,99,3.36,overcast clouds
334,Guanica,PR,2022-01-04 03:32:11,17.9716,-66.908,75.9,73,9,3.0,clear sky
335,Caconda,AO,2022-01-04 03:32:12,-13.7333,15.0667,59.54,98,100,1.3,light rain
336,Zhigansk,RU,2022-01-04 03:32:12,66.7697,123.3711,-37.01,96,100,9.37,overcast clouds
337,Saurimo,AO,2022-01-04 03:32:12,-9.6608,20.3916,64.56,99,100,4.18,overcast clouds
338,Zhezkazgan,KZ,2022-01-04 03:32:12,47.8043,67.7144,24.78,93,90,11.18,overcast clouds
339,Tessalit,ML,2022-01-04 03:32:13,20.1986,1.0114,56.5,33,0,11.16,clear sky
340,Gushikawa,JP,2022-01-04 03:32:13,26.3544,127.8686,69.8,52,1,12.66,clear sky
341,Tiksi,RU,2022-01-04 03:32:13,71.6872,128.8694,-27.29,94,100,14.79,overcast clouds
342,Date,JP,2022-01-04 03:32:14,42.4681,140.8681,22.73,70,96,22.28,overcast clouds
343,Walvis Bay,NA,2022-01-04 03:32:14,-22.9575,14.5053,60.1,88,7,5.75,clear sky
344,Tamana,JP,2022-01-04 03:32:14,32.9167,130.5667,55.09,45,4,5.01,clear sky
345,Kattivakkam,IN,2022-01-04 03:32:15,13.2167,80.3167,79.07,76,79,13.11,broken clouds
346,Rosita,NI,2022-01-04 03:32:15,13.9268,-84.4032,70.47,99,45,2.89,scattered clouds
347,Provideniya,RU,2022-01-04 03:32:15,64.3833,-173.3,6.22,95,63,2.53,broken clouds
348,Reguengos De Monsaraz,PT,2022-01-04 03:32:15,38.4253,-7.5349,47.88,87,67,5.17,broken clouds
349,Grindavik,IS,2022-01-04 03:32:16,63.8424,-22.4338,28.87,74,0,4.61,clear sky
350,Yumen,CN,2022-01-04 03:32:16,40.2833,97.2,24.17,33,99,14.45,overcast clouds
351,Pacifica,US,2022-01-04 03:29:32,37.6138,-122.4869,55.02,93,90,7.0,mist
352,Coquimbo,CL,2022-01-04 03:27:22,-29.9533,-71.3436,60.53,94,0,3.44,clear sky
353,Maumere,ID,2022-01-04 03:32:16,-8.6199,122.2111,83.71,74,100,4.92,moderate rain
354,Mulki,IN,2022-01-04 03:32:17,13.1,74.8,76.28,69,20,5.75,few clouds
355,Montes Altos,BR,2022-01-04 03:32:17,-5.8333,-47.0667,70.59,99,100,2.57,overcast clouds
356,San Felipe,VE,2022-01-04 03:33:17,10.3399,-68.7425,71.01,95,100,4.29,overcast clouds
357,Jacareacanga,BR,2022-01-04 03:33:18,-6.2222,-57.7528,72.66,99,100,2.19,moderate rain
358,Kirra,GR,2022-01-04 03:33:18,38.4333,22.45,54.79,66,7,6.98,clear sky
359,Kudahuvadhoo,MV,2022-01-04 03:33:18,2.6708,72.8944,79.86,77,94,7.38,light rain
360,Comodoro Rivadavia,AR,2022-01-04 03:33:18,-45.8667,-67.5,58.86,33,0,27.63,clear sky
361,Lodwar,KE,2022-01-04 03:33:19,3.1191,35.5973,77.13,46,81,4.88,broken clouds
362,Taloqan,AF,2022-01-04 03:33:19,36.7361,69.5345,47.68,68,100,3.65,overcast clouds
363,Lalmohan,BD,2022-01-04 03:33:19,22.3384,90.7419,68.72,55,76,9.93,broken clouds
364,Rawson,AR,2022-01-04 03:33:20,-43.3002,-65.1023,62.24,36,17,30.71,few clouds
365,Presidente Medici,BR,2022-01-04 03:33:20,-11.1753,-61.9014,72.7,99,100,4.03,overcast clouds
366,Narsaq,GL,2022-01-04 03:33:20,60.9167,-46.05,35.82,47,100,36.13,overcast clouds
367,Nianzishan,CN,2022-01-04 03:33:21,47.5167,122.8833,9.88,46,0,4.81,clear sky
368,San Policarpo,PH,2022-01-04 03:33:21,12.1791,125.5072,79.12,82,99,17.31,overcast clouds
369,Ambilobe,MG,2022-01-04 03:33:21,-13.2,49.05,78.6,84,99,2.13,overcast clouds
370,Ostrovnoy,RU,2022-01-04 03:33:21,68.0531,39.5131,15.06,83,100,9.17,light snow
371,Sinnamary,GF,2022-01-04 03:33:22,5.3833,-52.95,76.35,81,23,10.85,few clouds
372,Berlevag,NO,2022-01-04 03:33:22,70.8578,29.0864,15.8,66,100,17.38,overcast clouds
373,Tucupita,VE,2022-01-04 03:33:22,9.0622,-62.051,68.32,98,11,3.0,few clouds
374,Mount Gambier,AU,2022-01-04 03:31:38,-37.8333,140.7667,69.71,46,90,18.41,overcast clouds
375,Sergeyevka,KZ,2022-01-04 03:33:23,53.88,67.4158,4.42,94,91,10.38,overcast clouds
376,Ambulu,ID,2022-01-04 03:33:23,-8.345,113.6058,82.26,73,100,3.22,overcast clouds
377,Buerarema,BR,2022-01-04 03:33:23,-14.9594,-39.2997,67.14,98,99,1.23,overcast clouds
378,Dolores,AR,2022-01-04 03:33:24,-36.3132,-57.6792,71.46,62,33,5.5,light rain
379,Basiad,PH,2022-01-04 03:33:24,14.1562,122.3375,80.24,67,93,14.14,overcast clouds
380,Umm Kaddadah,SD,2022-01-04 03:33:24,13.6017,26.6876,53.89,45,5,15.01,clear sky
381,Cockburn Town,TC,2022-01-04 03:33:24,21.4612,-71.1419,78.33,71,0,10.31,clear sky
382,Vanderhoof,CA,2022-01-04 03:33:25,54.0166,-124.0198,-12.64,93,100,7.31,overcast clouds
383,Pellerd,HU,2022-01-04 03:33:25,46.0344,18.154,40.05,93,77,2.3,broken clouds
384,Loum,CM,2022-01-04 03:33:25,4.7182,9.7351,72.18,87,100,1.39,overcast clouds
385,San Andres,CO,2022-01-04 03:33:26,12.5847,-81.7006,80.62,74,40,17.27,scattered clouds
386,Manizales,CO,2022-01-04 03:30:39,5.0689,-75.5174,60.75,93,56,5.37,broken clouds
387,Sungaipenuh,ID,2022-01-04 03:33:26,-2.0833,101.3833,78.67,53,92,3.87,overcast clouds
388,Bhatgaon,IN,2022-01-04 03:33:26,21.15,81.7,64.58,72,0,0.0,haze
389,Sept-Iles,CA,2022-01-04 03:32:02,50.2001,-66.3821,-5.94,78,1,2.3,clear sky
390,Cam Ranh,VN,2022-01-04 03:33:27,11.9214,109.1591,80.56,61,40,13.8,scattered clouds
391,Prince George,CA,2022-01-04 03:32:08,53.9166,-122.753,-6.72,74,90,1.01,light snow
392,Khandyga,RU,2022-01-04 03:33:27,62.6667,135.6,-35.27,98,100,2.17,overcast clouds
393,Asau,RO,2022-01-04 03:33:27,46.4333,26.4,44.96,65,27,6.02,scattered clouds
394,Richards Bay,ZA,2022-01-04 03:33:28,-28.783,32.0377,71.53,91,100,11.23,overcast clouds
395,Kokoda,PG,2022-01-04 03:33:28,-8.8785,147.7407,89.96,57,100,1.45,overcast clouds
396,Werda,BW,2022-01-04 03:33:28,-25.2667,23.2833,71.04,57,4,6.8,clear sky
397,Sorland,NO,2022-01-04 03:33:28,67.667,12.6934,33.76,69,100,15.75,overcast clouds
398,Atar,MR,2022-01-04 03:33:29,20.5169,-13.0499,62.28,27,34,8.46,scattered clouds
399,Luganville,VU,2022-01-04 03:33:29,-15.5333,167.1667,82.38,83,91,5.59,moderate rain
400,Blagoyevo,RU,2022-01-04 03:33:29,63.3667,47.9167,-4.05,99,95,5.5,overcast clouds
401,Puerto Escondido,MX,2022-01-04 03:33:30,15.85,-97.0667,77.83,73,1,0.0,clear sky
402,Mackay,AU,2022-01-04 03:34:30,-21.15,149.2,104.68,44,21,8.05,few clouds
403,Anloga,GH,2022-01-04 03:34:30,5.7947,0.8973,82.62,76,81,6.51,broken clouds
404,Lata,PT,2022-01-04 03:34:31,40.1629,-8.3327,54.91,91,36,6.4,scattered clouds
405,Saint George,US,2022-01-04 03:34:31,37.1041,-113.5841,44.35,51,1,8.01,clear sky
406,Te Anau,NZ,2022-01-04 03:34:31,-45.4167,167.7167,65.28,73,100,2.39,overcast clouds
407,Omsukchan,RU,2022-01-04 03:34:31,62.5333,155.8,5.11,97,100,5.35,light snow
408,Jurado,CO,2022-01-04 03:34:32,7.1053,-77.7641,75.96,94,80,2.33,broken clouds
409,Mpika,ZM,2022-01-04 03:34:32,-11.8343,31.4529,62.01,97,100,3.15,light rain
410,Kulhudhuffushi,MV,2022-01-04 03:34:32,6.6221,73.07,82.27,72,27,7.36,scattered clouds
411,Seymchan,RU,2022-01-04 03:34:33,62.8833,152.4333,-22.79,95,100,1.74,overcast clouds
412,Rockingham,US,2022-01-04 03:34:33,42.9668,-71.0995,24.51,63,100,1.99,overcast clouds
413,Kabompo,ZM,2022-01-04 03:34:33,-13.5927,24.2008,63.36,98,100,3.18,overcast clouds
414,Sibolga,ID,2022-01-04 03:34:34,1.7427,98.7792,84.87,65,56,3.94,broken clouds
415,Falam,MM,2022-01-04 03:34:34,22.9167,93.6833,63.41,36,0,2.77,clear sky
416,Anton Lizardo,MX,2022-01-04 03:34:34,19.05,-95.9833,67.21,70,67,16.2,broken clouds
417,Okha,RU,2022-01-04 03:34:34,53.5739,142.9478,-6.86,89,44,16.87,scattered clouds
418,Anshun,CN,2022-01-04 03:34:35,26.25,105.9333,51.67,88,100,15.64,overcast clouds
419,Raudeberg,NO,2022-01-04 03:34:35,61.9875,5.1352,37.2,92,100,7.0,light snow
420,Souillac,MU,2022-01-04 03:34:35,-20.5167,57.5167,82.36,83,40,6.91,scattered clouds
421,Ahipara,NZ,2022-01-04 03:34:36,-35.1667,173.1667,74.12,58,97,12.39,overcast clouds
422,Cidahu,ID,2022-01-04 03:34:36,-6.3113,106.0568,82.89,47,84,3.4,broken clouds
423,Biloela,AU,2022-01-04 03:34:36,-24.4167,150.5,98.02,20,16,17.81,few clouds
424,Karangampel,ID,2022-01-04 03:34:36,-6.4622,108.4519,84.92,58,95,2.71,overcast clouds
425,Los Llanos De Aridane,ES,2022-01-04 03:34:37,28.6585,-17.9182,63.12,34,0,3.0,clear sky
426,Turayf,SA,2022-01-04 03:34:37,31.6725,38.6637,35.85,93,0,4.61,clear sky
427,Kamina,CD,2022-01-04 03:34:37,-8.7386,24.9906,64.89,98,100,2.95,light rain
428,Giovinazzo,IT,2022-01-04 03:34:38,41.1864,16.6674,51.49,93,0,6.91,clear sky
429,Touros,BR,2022-01-04 03:34:38,-5.1989,-35.4608,79.7,74,97,13.0,overcast clouds
430,Ndele,CF,2022-01-04 03:34:38,8.4109,20.6473,66.83,37,96,5.93,overcast clouds
431,Casablanca,MA,2022-01-04 03:34:39,33.5928,-7.6192,55.33,93,12,1.99,few clouds
432,Kirakira,SB,2022-01-04 03:34:39,-10.4544,161.9205,86.81,64,100,12.26,overcast clouds
433,Bengkulu,ID,2022-01-04 03:34:39,-3.8004,102.2655,82.58,69,96,3.98,overcast clouds
434,Chumikan,RU,2022-01-04 03:34:39,54.7183,135.315,-12.41,84,100,16.53,overcast clouds
435,Mahanje,TZ,2022-01-04 03:34:40,-9.9333,35.3333,64.74,96,100,2.33,light rain
436,Bubaque,GW,2022-01-04 03:34:40,11.2833,-15.8333,78.93,61,71,7.0,broken clouds
437,Mandan,US,2022-01-04 03:33:40,46.8267,-100.8896,16.03,87,1,13.8,clear sky
438,Bontang,ID,2022-01-04 03:34:41,0.1333,117.5,82.06,73,100,7.18,overcast clouds
439,Rio Cuarto,AR,2022-01-04 03:34:41,-33.1307,-64.3499,71.67,71,90,17.6,light rain
440,Zhanakorgan,KZ,2022-01-04 03:34:41,43.9098,67.2495,33.55,96,100,9.33,light rain
441,Manaus,BR,2022-01-04 03:34:41,-3.1019,-60.025,81.09,78,75,3.44,broken clouds
442,Meulaboh,ID,2022-01-04 03:34:42,4.1363,96.1285,81.45,75,14,1.23,few clouds
443,Yaan,NG,2022-01-04 03:34:42,7.3833,8.5667,73.62,27,100,8.66,overcast clouds
444,Manta,EC,2022-01-04 03:31:38,-0.95,-80.7333,76.78,69,75,6.91,broken clouds
445,Vodnyy,RU,2022-01-04 03:35:42,63.5046,53.4095,1.33,94,100,6.49,overcast clouds
446,Dryden,CA,2022-01-04 03:35:43,49.7833,-92.7503,-9.11,84,40,4.61,scattered clouds
447,Bilibino,RU,2022-01-04 03:35:43,68.0546,166.4372,17.64,95,100,3.53,overcast clouds
448,Port Arthur,CN,2022-01-04 03:35:43,38.8,121.2667,30.42,33,0,7.18,clear sky
449,Hambantota,LK,2022-01-04 03:35:44,6.1241,81.1185,79.14,89,75,9.22,light rain
450,Chegdomyn,RU,2022-01-04 03:35:44,51.1167,133.0167,-15.12,86,19,1.79,few clouds
451,Hue,VN,2022-01-04 03:35:44,16.4667,107.6,73.51,78,75,3.44,mist
452,Kousseri,CM,2022-01-04 03:35:45,12.0769,15.0306,62.56,42,6,8.05,dust
453,San Rafael,AR,2022-01-04 03:35:45,-34.6177,-68.3301,79.02,19,31,5.48,scattered clouds
454,Tezu,IN,2022-01-04 03:35:45,27.9167,96.1667,70.61,37,3,3.11,clear sky
455,Isiolo,KE,2022-01-04 03:35:45,0.3546,37.5822,64.13,62,5,5.32,clear sky
456,Sinjai,ID,2022-01-04 03:35:46,-5.1241,120.253,84.85,70,100,0.72,overcast clouds
457,Jinan,CN,2022-01-04 03:35:46,36.6683,116.9972,41.29,37,58,3.31,broken clouds
458,Noyabrsk,RU,2022-01-04 03:35:46,63.1994,75.4507,18.52,95,100,19.77,light snow
459,Bondo,CD,2022-01-04 03:35:47,3.8146,23.6866,67.55,52,100,2.26,overcast clouds
460,Pasinler,TR,2022-01-04 03:35:47,39.9803,41.6764,16.79,72,75,2.01,broken clouds
461,Padang,ID,2022-01-04 03:35:47,-0.9492,100.3543,86.05,66,70,3.89,broken clouds
462,Moron,AR,2022-01-04 03:31:06,-34.6534,-58.6198,84.02,59,26,5.01,scattered clouds
463,Half Moon Bay,US,2022-01-04 03:35:48,37.4636,-122.4286,55.2,93,90,5.01,mist
464,Nisia Floresta,BR,2022-01-04 03:35:48,-6.0911,-35.2086,79.61,80,90,7.94,overcast clouds
465,Dwarka,IN,2022-01-04 03:35:48,22.2394,68.9678,74.21,59,5,7.9,clear sky
466,Abay,KZ,2022-01-04 03:35:48,49.6311,72.8539,34.18,98,100,18.77,light snow
467,Fortuna,US,2022-01-04 03:35:49,40.5982,-124.1573,52.14,94,90,1.99,overcast clouds
468,Iqaluit,CA,2022-01-04 03:35:49,63.7506,-68.5145,6.53,84,90,20.0,light snow
469,Basco,PH,2022-01-04 03:35:49,20.4487,121.9702,75.49,66,95,18.95,overcast clouds
470,Skibbereen,IE,2022-01-04 03:35:50,51.55,-9.2667,37.2,71,14,13.49,few clouds
471,Pastavy,BY,2022-01-04 03:35:50,55.1168,26.8326,36.39,99,100,11.27,overcast clouds
472,Calverton,US,2022-01-04 03:35:50,39.0576,-76.9358,29.16,86,1,9.1,clear sky
473,Puerto Leguizamo,CO,2022-01-04 03:35:50,-0.1934,-74.7819,72.19,67,53,2.3,broken clouds
474,Samagaltay,RU,2022-01-04 03:35:51,50.6022,95.0047,-4.54,85,65,3.87,broken clouds
475,Agirish,RU,2022-01-04 03:35:51,61.9247,63.0231,-8.09,96,100,6.89,overcast clouds
476,Xunchang,CN,2022-01-04 03:35:51,28.4543,104.715,46.31,79,100,1.3,overcast clouds
477,Ribeira Grande,PT,2022-01-04 03:35:52,38.5167,-28.7,56.91,60,96,8.14,overcast clouds
478,Brzesko,PL,2022-01-04 03:35:52,49.9691,20.6061,43.38,85,100,5.61,light rain
479,Turkistan,KZ,2022-01-04 03:35:52,43.0,68.0,37.6,84,100,12.12,overcast clouds
480,Banda Aceh,ID,2022-01-04 03:35:52,5.5577,95.3222,81.46,74,99,4.36,overcast clouds
481,Shimoda,JP,2022-01-04 03:35:53,34.6667,138.95,53.96,51,1,31.0,clear sky
482,Itaqui,BR,2022-01-04 03:35:53,-29.1253,-56.5531,72.57,81,88,6.44,overcast clouds
483,Langholm,GB,2022-01-04 03:35:53,55.151,-2.9989,30.54,84,17,8.43,few clouds
484,Straumen,NO,2022-01-04 03:35:54,63.8709,11.2999,31.95,85,100,6.78,overcast clouds
485,Matara,LK,2022-01-04 03:35:54,5.9485,80.5353,82.0,72,69,1.39,moderate rain
486,Kloulklubed,PW,2022-01-04 03:35:54,7.0419,134.2556,84.7,77,64,14.03,broken clouds
487,Iberia,US,2022-01-04 03:35:55,29.9502,-91.7507,39.27,56,1,4.61,clear sky
488,Monrovia,LR,2022-01-04 03:35:55,6.3005,-10.7969,79.25,77,96,5.26,overcast clouds
489,Hobyo,SO,2022-01-04 03:35:55,5.3505,48.5268,79.47,82,5,11.54,clear sky
490,Saint-Francois,FR,2022-01-04 03:35:55,46.4154,3.9054,54.84,62,0,12.66,clear sky
491,Monterey,US,2022-01-04 03:36:56,36.2505,-121.2516,50.11,1,100,1.79,overcast clouds
492,Skelleftea,SE,2022-01-04 03:36:56,64.7507,20.9528,24.01,69,90,1.99,mist
493,Urzhum,RU,2022-01-04 03:36:56,57.1141,49.9996,-7.24,99,55,6.85,broken clouds
494,Varkkallai,IN,2022-01-04 03:36:57,8.7341,76.7067,85.78,55,87,7.29,overcast clouds
495,Viani,CO,2022-01-04 03:36:57,4.8738,-74.5624,68.43,95,82,3.62,broken clouds
496,Dongsheng,CN,2022-01-04 03:36:57,39.8161,109.9776,24.08,36,0,4.03,clear sky
497,Kapoeta,SS,2022-01-04 03:36:57,4.7717,33.5903,78.03,30,100,5.55,overcast clouds
498,Muli,MV,2022-01-04 03:36:58,2.9167,73.5667,80.26,79,100,10.83,moderate rain
499,Kuznetsk,RU,2022-01-04 03:36:58,53.1167,46.6004,10.22,95,100,6.22,overcast clouds
500,Along,IN,2022-01-04 03:36:58,28.1667,94.7667,66.42,41,3,0.65,clear sky
501,Mogadishu,SO,2022-01-04 03:36:59,2.0371,45.3438,78.13,85,57,11.83,broken clouds
502,Visnes,NO,2022-01-04 03:36:59,59.3556,5.2242,41.22,70,20,27.63,few clouds
503,Jiwani,PK,2022-01-04 03:36:59,25.05,61.7417,73.13,84,99,9.71,heavy intensity rain
504,Khazar,RU,2022-01-04 03:33:04,41.9974,48.3332,38.57,69,95,7.16,overcast clouds
505,Del Rio,US,2022-01-04 03:36:59,29.3627,-100.8968,53.71,22,1,9.22,clear sky
506,Marsabit,KE,2022-01-04 03:37:00,2.3284,37.9899,65.16,64,41,7.11,scattered clouds
507,Salme,NP,2022-01-04 03:37:00,28.0369,85.0942,43.09,40,0,3.67,clear sky
508,Katobu,ID,2022-01-04 03:37:00,-4.9408,122.5276,86.11,64,99,9.04,light rain
509,Dong Hoi,VN,2022-01-04 03:37:01,17.4833,106.6,68.47,88,100,5.14,overcast clouds
510,Hede,CN,2022-01-04 03:37:01,33.7681,120.2517,48.09,57,100,11.86,overcast clouds
511,Alyangula,AU,2022-01-04 03:37:01,-13.8483,136.4192,87.67,74,100,8.05,overcast clouds
512,North Platte,US,2022-01-04 03:37:02,41.1239,-100.7654,34.38,80,1,1.01,clear sky
513,Saint-Joseph,RE,2022-01-04 03:37:02,-21.3667,55.6167,78.21,73,15,7.4,few clouds
514,Bastia,FR,2022-01-04 03:37:02,42.6667,9.3333,55.29,91,0,5.75,clear sky
515,Panguipulli,CL,2022-01-04 03:37:03,-39.6333,-72.3333,53.31,99,100,1.7,overcast clouds
516,Palmares Do Sul,BR,2022-01-04 03:37:03,-30.2578,-50.5097,75.2,90,100,11.65,overcast clouds
517,Khandbari,NP,2022-01-04 03:37:03,27.3747,87.2039,61.36,43,1,2.04,clear sky
518,Mayo,US,2022-01-04 03:37:03,38.8876,-76.5119,30.31,85,3,3.0,clear sky
519,Port Blair,IN,2022-01-04 03:37:04,11.6667,92.75,83.03,68,50,12.77,scattered clouds
520,Batemans Bay,AU,2022-01-04 03:37:04,-35.7167,150.1833,84.2,57,4,9.42,clear sky
521,Kurilsk,RU,2022-01-04 03:37:04,45.2333,147.8833,28.56,70,100,30.18,snow
522,Egvekinot,RU,2022-01-04 03:37:05,66.3167,-179.1667,9.79,98,100,2.1,overcast clouds
523,Eyl,SO,2022-01-04 03:37:05,7.9803,49.8164,76.5,84,46,10.67,scattered clouds
524,Nyrob,RU,2022-01-04 03:37:05,60.733,56.7202,-2.31,99,100,2.91,overcast clouds
525,Amahai,ID,2022-01-04 03:37:05,-3.3333,128.9167,81.79,78,100,2.51,overcast clouds
526,Progreso,MX,2022-01-04 03:37:06,21.2833,-89.6667,71.11,70,100,12.33,overcast clouds
527,Alepe,CI,2022-01-04 03:37:06,5.5004,-3.6631,76.87,85,100,2.73,overcast clouds
528,Praia,CV,2022-01-04 03:37:06,14.9215,-23.5087,70.34,78,0,16.11,clear sky
529,Komsomolskiy,UZ,2022-01-04 03:37:07,40.4272,71.7189,39.92,52,40,4.61,moderate rain
530,Cleburne,US,2022-01-04 03:37:07,32.3476,-97.3867,45.97,43,1,8.05,clear sky
531,Lerdo,MX,2022-01-04 03:37:07,25.5333,-103.5333,57.07,28,1,0.0,clear sky
532,Angoche,MZ,2022-01-04 03:37:07,-16.2325,39.9086,78.71,82,100,1.28,overcast clouds
533,Ecoporanga,BR,2022-01-04 03:37:08,-18.3733,-40.8306,68.77,97,96,1.9,overcast clouds
534,College,US,2022-01-04 03:34:18,64.8569,-147.8028,-22.02,72,20,6.91,few clouds
535,Camacha,PT,2022-01-04 03:37:08,33.0833,-16.3333,60.53,72,0,12.66,clear sky
536,Ust-Maya,RU,2022-01-04 03:37:08,60.4167,134.5333,-31.09,98,97,1.1,overcast clouds
537,Polunochnoye,RU,2022-01-04 03:37:09,60.8697,60.4153,-5.8,98,100,1.95,overcast clouds
538,Codrington,AU,2022-01-04 03:38:09,-38.2667,141.9667,63.05,65,98,15.79,overcast clouds
539,Banjar,ID,2022-01-04 03:38:09,-8.19,114.9675,82.26,77,100,2.26,overcast clouds
540,Pravia,ES,2022-01-04 03:38:09,43.4906,-6.1508,66.49,45,0,9.22,clear sky
541,Lichinga,MZ,2022-01-04 03:38:10,-13.3128,35.2406,63.05,96,100,4.76,overcast clouds
542,Caravelas,BR,2022-01-04 03:38:10,-17.7125,-39.2481,74.1,90,100,5.1,overcast clouds
543,Santa Rosa,PH,2022-01-04 03:38:10,14.3122,121.1114,87.12,63,45,18.75,scattered clouds
544,Vanimo,PG,2022-01-04 03:38:11,-2.6741,141.3028,84.85,70,60,12.1,broken clouds
545,Cocobeach,GA,2022-01-04 03:38:11,1.0002,9.5823,78.08,85,100,0.74,overcast clouds
546,Berdigestyakh,RU,2022-01-04 03:38:11,62.0989,126.6992,-26.72,99,99,3.4,overcast clouds
547,La Ronge,CA,2022-01-04 03:38:11,55.1001,-105.2842,-12.75,70,90,9.22,overcast clouds
548,Saint-Gaudens,FR,2022-01-04 03:38:12,43.0833,0.6667,48.52,68,39,7.61,scattered clouds
549,Kerema,PG,2022-01-04 03:38:12,-7.9631,145.7785,84.52,72,71,6.85,broken clouds
550,La Rioja,ES,2022-01-04 03:38:12,42.25,-2.5,43.32,58,100,11.18,overcast clouds
551,Santa Isabel,BR,2022-01-04 03:38:13,-23.3156,-46.2214,73.65,99,100,2.3,overcast clouds
552,Taksimo,RU,2022-01-04 03:38:13,56.3444,114.8794,-11.45,91,100,1.43,overcast clouds
553,Lukovetskiy,RU,2022-01-04 03:38:13,64.2956,41.9211,-4.02,98,77,3.58,broken clouds
554,Trairi,BR,2022-01-04 03:38:13,-3.2778,-39.2689,77.65,85,93,6.91,overcast clouds
555,Floriano,BR,2022-01-04 03:38:14,-6.7669,-43.0225,73.53,92,83,2.46,broken clouds
556,Point Pleasant,US,2022-01-04 03:38:14,40.0832,-74.0682,26.35,62,1,8.99,clear sky
557,Udachnyy,RU,2022-01-04 03:38:14,66.4167,112.4,-46.55,71,68,3.02,broken clouds
558,Vata De Jos,RO,2022-01-04 03:38:14,46.1833,22.6,40.03,97,73,2.1,broken clouds
559,Narbonne,FR,2022-01-04 03:38:15,43.0833,2.8333,50.56,87,99,1.99,overcast clouds
560,Mosquera,CO,2022-01-04 03:38:15,4.7059,-74.2302,55.49,94,75,4.61,broken clouds
561,Akyab,MM,2022-01-04 03:38:15,20.15,92.9,72.86,48,0,4.88,clear sky
562,Boa Vista,BR,2022-01-04 03:38:16,2.8197,-60.6733,78.78,65,0,8.05,clear sky
563,Tarut,SA,2022-01-04 03:38:16,26.5733,50.0369,60.78,56,0,13.58,clear sky
564,Slave Lake,CA,2022-01-04 03:38:16,55.2834,-114.769,-13.02,77,90,4.61,light snow
565,Port Macquarie,AU,2022-01-04 03:36:09,-31.4333,152.9167,78.76,73,75,17.27,broken clouds
566,General Cepeda,MX,2022-01-04 03:38:16,25.3833,-101.45,49.41,48,0,3.09,clear sky
567,Eureka,US,2022-01-04 03:35:21,40.8021,-124.1637,52.41,91,100,5.01,overcast clouds
568,Port Shepstone,ZA,2022-01-04 03:38:17,-30.7414,30.455,72.55,91,100,8.88,overcast clouds
569,Nantucket,US,2022-01-04 03:37:18,41.2835,-70.0995,33.91,78,90,26.46,light snow
570,Baglung,NP,2022-01-04 03:38:17,28.2719,83.5898,60.06,47,0,1.92,clear sky
571,Culpeper,US,2022-01-04 03:38:17,38.5004,-77.9664,28.18,85,2,4.74,clear sky
572,Semenivka,UA,2022-01-04 03:38:18,52.1783,32.5818,25.72,96,100,2.84,overcast clouds
573,Hokitika,NZ,2022-01-04 03:38:18,-42.7167,170.9667,68.25,71,100,8.57,overcast clouds
574,Lazaro Cardenas,MX,2022-01-04 03:38:18,17.9583,-102.2,74.28,80,0,4.41,clear sky
575,Pitimbu,BR,2022-01-04 03:38:18,-7.4706,-34.8086,81.19,73,95,10.36,overcast clouds
576,Outjo,NA,2022-01-04 03:38:19,-20.1167,16.15,66.31,30,66,2.68,broken clouds
577,Zhireken,RU,2022-01-04 03:38:19,52.8249,117.3076,-7.33,90,79,3.42,broken clouds
578,Riyadh,SA,2022-01-04 03:33:44,24.6877,46.7219,46.54,62,0,6.33,clear sky
579,Muncar,ID,2022-01-04 03:33:44,-8.4333,114.3333,80.73,79,100,3.62,overcast clouds
580,Odienne,CI,2022-01-04 03:38:19,9.51,-7.5692,67.33,25,40,1.07,scattered clouds
581,Turinskaya Sloboda,RU,2022-01-04 03:38:20,57.6232,64.3858,1.45,92,44,9.69,scattered clouds
582,Psebay,RU,2022-01-04 03:38:20,44.1234,40.8107,37.6,74,100,5.95,overcast clouds
583,Rajampet,IN,2022-01-04 03:38:20,14.1833,79.1667,73.99,75,38,3.91,scattered clouds
584,Lyubinskiy,RU,2022-01-04 03:38:21,55.1542,72.6925,28.08,98,100,13.71,snow
585,Portland,US,2022-01-04 03:38:18,45.5234,-122.6762,38.86,94,90,1.99,overcast clouds
586,Dunedin,NZ,2022-01-04 03:38:21,-45.8742,170.5036,64.38,67,100,3.89,light rain
587,Puerto Penasco,MX,2022-01-04 03:39:21,31.3167,-113.5333,55.9,53,14,5.88,few clouds
588,Zalantun,CN,2022-01-04 03:39:22,48.0,122.7167,6.24,62,0,3.02,clear sky
589,Ilo,PE,2022-01-04 03:39:22,-17.6394,-71.3375,69.33,83,86,4.07,overcast clouds
590,Santiago,CL,2022-01-04 03:39:22,-33.4569,-70.6483,73.85,44,0,10.36,clear sky
591,Susangerd,IR,2022-01-04 03:39:23,31.5608,48.1831,51.82,78,87,11.36,overcast clouds
592,Novocheboksarsk,RU,2022-01-04 03:39:23,56.111,47.4776,-15.41,100,100,2.37,overcast clouds
593,Kostino,RU,2022-01-04 03:39:23,58.9097,53.2691,1.42,95,100,6.67,overcast clouds
594,Pyay,MM,2022-01-04 03:39:23,18.8167,95.2167,79.68,43,0,9.13,clear sky
595,Brigantine,US,2022-01-04 03:39:24,39.4101,-74.3646,27.01,80,1,11.5,clear sky
596,Axim,GH,2022-01-04 03:39:24,4.8699,-2.2405,79.38,83,98,5.44,overcast clouds
597,Trofors,NO,2022-01-04 03:39:24,65.5333,13.4063,31.35,92,100,6.51,overcast clouds
598,Abnub,EG,2022-01-04 03:39:25,27.2696,31.1511,51.89,78,0,3.71,clear sky
599,Shakawe,BW,2022-01-04 03:39:25,-18.3667,21.85,67.35,92,98,3.15,overcast clouds
600,Geraldton,AU,2022-01-04 03:39:25,-28.7667,114.6,84.61,48,0,14.97,clear sky
601,Amapa,BR,2022-01-04 03:39:25,1.0,-52.0,71.51,99,100,1.43,overcast clouds
602,Ojinaga,MX,2022-01-04 03:39:26,29.5667,-104.4167,52.57,23,1,5.75,clear sky
603,Douglas,US,2022-01-04 03:36:21,41.3,-96.167,33.6,76,1,5.01,clear sky
604,Xuddur,SO,2022-01-04 03:39:26,4.1213,43.8894,70.03,90,34,11.1,scattered clouds
605,Jiangkou,CN,2022-01-04 03:39:26,25.4872,119.1986,62.49,64,73,10.31,broken clouds
606,Sabang,ID,2022-01-04 03:39:27,5.8933,95.3214,81.09,74,99,13.76,overcast clouds
607,Varna,BG,2022-01-04 03:34:43,43.2167,27.9167,47.88,83,0,8.05,clear sky
608,Cheremkhovo,RU,2022-01-04 03:39:27,53.1561,103.0675,12.74,83,96,4.65,overcast clouds
609,Erenhot,CN,2022-01-04 03:39:27,43.6475,111.9767,16.12,54,0,5.44,clear sky
610,Upata,VE,2022-01-04 03:39:27,8.0086,-62.3989,66.11,97,85,3.8,overcast clouds
611,Noumea,NC,2022-01-04 03:38:45,-22.2763,166.4572,84.18,84,91,7.7,overcast clouds
612,Pemangkat,ID,2022-01-04 03:39:28,1.1667,108.9667,83.14,72,90,6.22,overcast clouds
613,Bowen,AU,2022-01-04 03:39:28,-20.0167,148.2333,100.62,50,48,10.33,scattered clouds
614,Peleduy,RU,2022-01-04 03:39:28,59.6289,112.7406,5.31,94,100,2.68,overcast clouds
615,Lukino,RU,2022-01-04 03:39:29,56.4418,43.6293,1.38,100,100,0.49,overcast clouds
616,Kerman,IR,2022-01-04 03:39:29,30.2832,57.0788,40.86,60,40,4.61,scattered clouds
617,Sisimiut,GL,2022-01-04 03:39:29,66.9395,-53.6735,21.72,77,100,8.19,overcast clouds
618,Chipinge,ZW,2022-01-04 03:39:29,-20.1883,32.6236,64.29,92,99,3.38,overcast clouds
619,Wuda,CN,2022-01-04 03:39:30,39.4994,106.7117,29.5,31,0,7.18,clear sky
620,Lixourion,GR,2022-01-04 03:39:30,38.2019,20.4314,53.94,80,32,1.81,scattered clouds
621,Dakar,SN,2022-01-04 03:37:21,14.6937,-17.4441,69.93,88,0,2.3,clear sky
622,Kaduqli,SD,2022-01-04 03:39:30,11.0167,29.7167,63.0,25,59,12.15,broken clouds
623,Ribeira Brava,PT,2022-01-04 03:39:31,32.65,-17.0667,66.13,22,100,6.91,overcast clouds
624,Birin,NP,2022-01-04 03:39:31,26.8865,88.0718,54.52,50,2,4.0,clear sky
625,Olinda,BR,2022-01-04 03:39:31,-8.0089,-34.8553,82.13,69,40,8.05,scattered clouds
626,Bolshoy Lug,RU,2022-01-04 03:39:31,52.0779,104.0919,12.18,68,72,2.06,broken clouds
627,Yali,CO,2022-01-04 03:39:32,6.6746,-74.8343,62.76,98,70,3.42,broken clouds
628,Chinsali,ZM,2022-01-04 03:39:32,-10.5414,32.0816,64.33,97,100,1.54,light rain
629,Rampur Hat,IN,2022-01-04 03:39:32,24.1667,87.7833,67.46,42,0,5.86,clear sky
630,Port-Gentil,GA,2022-01-04 03:39:33,-0.7193,8.7815,79.52,79,100,3.87,overcast clouds
631,Polyarnyy,RU,2022-01-04 03:39:33,69.1989,33.4478,-14.33,96,100,6.33,overcast clouds
632,Portmore,JM,2022-01-04 03:39:33,17.9702,-76.8672,76.96,69,20,4.61,few clouds
633,Djibo,BF,2022-01-04 03:39:33,14.1022,-1.6306,62.69,28,0,8.28,clear sky
634,Moree,AU,2022-01-04 03:39:34,-29.4667,149.85,95.02,24,0,12.66,clear sky
635,Eseka,CM,2022-01-04 03:40:34,3.65,10.7667,71.76,97,100,0.72,overcast clouds
636,Chillicothe,US,2022-01-04 03:40:34,39.3331,-82.9824,25.32,100,1,0.0,clear sky
637,San Juan,AR,2022-01-04 03:40:34,-31.5375,-68.5364,85.86,22,0,8.72,clear sky
638,Koroni,GR,2022-01-04 03:40:35,36.8,21.95,51.51,77,48,6.78,scattered clouds
639,Ulaangom,MN,2022-01-04 03:40:35,49.9811,92.0667,-13.27,94,97,0.22,overcast clouds
640,Sandnessjoen,NO,2022-01-04 03:40:35,66.0217,12.6316,31.98,68,100,7.0,overcast clouds
641,Hammerfest,NO,2022-01-04 03:40:36,70.6634,23.6821,16.25,79,75,11.5,broken clouds
642,Kolokani,ML,2022-01-04 03:40:36,13.5728,-8.0339,62.42,26,10,9.86,clear sky
643,Oksfjord,NO,2022-01-04 03:40:36,70.2396,22.3479,16.72,86,100,14.05,overcast clouds
644,Garden City,US,2022-01-04 03:40:36,42.3256,-83.331,26.42,83,20,8.05,few clouds
645,Cabedelo,BR,2022-01-04 03:40:37,-6.9811,-34.8339,81.27,75,73,11.36,broken clouds
646,Nueve De Julio,AR,2022-01-04 03:38:21,-35.4444,-60.8831,72.03,74,100,10.09,overcast clouds
647,San Carlos De Bariloche,AR,2022-01-04 03:39:19,-41.1456,-71.3082,53.35,50,40,25.32,scattered clouds
648,Channel-Port Aux Basques,CA,2022-01-04 03:40:37,47.5702,-59.1367,22.89,67,100,12.77,overcast clouds
649,Teyateyaneng,LS,2022-01-04 03:40:37,-29.1472,27.7489,61.18,57,97,5.37,overcast clouds
650,Saryozek,KZ,2022-01-04 03:40:38,44.3583,77.9753,39.72,37,100,2.15,overcast clouds
651,Orlik,RU,2022-01-04 03:40:38,52.5178,99.825,1.44,92,70,2.04,broken clouds
652,Bloomingdale,US,2022-01-04 03:36:57,27.8936,-82.2404,55.85,84,1,1.99,clear sky
653,Khilok,RU,2022-01-04 03:40:38,51.3674,110.4676,12.07,66,98,3.87,overcast clouds
654,Skjervoy,NO,2022-01-04 03:40:39,70.0311,20.9714,21.16,72,100,22.86,overcast clouds
655,Prado,BR,2022-01-04 03:36:29,-17.3411,-39.2208,73.99,92,91,6.33,overcast clouds
656,Iracoubo,GF,2022-01-04 03:40:39,5.4802,-53.2011,76.64,81,10,11.74,clear sky
657,Aksu,CN,2022-01-04 03:40:39,41.1231,80.2644,26.26,44,100,2.06,overcast clouds
658,Fare,PF,2022-01-04 03:40:40,-16.7,-151.0167,79.81,78,95,9.33,light rain
659,Yuli,NG,2022-01-04 03:40:40,9.6989,10.2744,62.89,43,91,6.44,overcast clouds
660,Sechura,PE,2022-01-04 03:40:40,-5.5569,-80.8222,70.59,76,97,11.52,overcast clouds
661,Labuhan,ID,2022-01-04 03:40:40,-6.8844,112.2051,84.45,67,100,5.1,overcast clouds
662,Seoul,KR,2022-01-04 03:38:18,37.5683,126.9778,34.21,37,0,5.75,clear sky
663,El Alto,PE,2022-01-04 03:40:41,-4.2714,-81.2147,68.25,78,95,11.54,overcast clouds
664,Trapani,IT,2022-01-04 03:40:41,37.8333,12.6667,54.34,88,90,6.91,overcast clouds
665,Kidal,ML,2022-01-04 03:40:41,18.4411,1.4078,58.51,32,0,10.04,clear sky
666,Luwuk,ID,2022-01-04 03:40:42,-0.9516,122.7875,84.63,74,100,0.13,overcast clouds
